{ "member" : { "name" : "Adonai", "phone" : "1234567890", "member_id" : "C123", "img" : "/assets/img/club1.img", "location" : { "latitude" : 123, "longitude" : 456, "city" : "Fairfield", "state" : "Iowa" }, "clubs" : [ { "name" : "Group5", "location" : { "latitude" : 41.00688, "longitude" : -91.967137, "city" : "Fairfield", "state" : "Iowa" }, "img" : "/assets/img/club1.img", "events" : [ { "name" : "April Bike Fever", "start_location" : { "latitude" : 123, "longitude" : 456 }, "end_location" : { "latitude" : 123, "longitude" : 456 }, "date" : "04/23/2017", "owner" : { "member_id" : "C123", "member_name" : "Adonai" }, "status" : "scheduled", "flag" : { "isSet" : false } }, { "name" : "Saturday Palooza", "start_location" : { "latitude" : 987, "longitude" : 475 }, "end_location" : { "latitude" : 654, "longitude" : 987 }, "date" : "04/25/2017", "owner" : { "member_id" : "C125", "member_name" : "Netsa" }, "status" : "scheduled", "flag" : { "isSet" : true } } ], "announcements" : [ { "title" : "Hello", "date" : "04/22/2017", "message" : "This is a general service announcement" } ] } ], "messages" : [ { "convo_id" : "m098", "recepient" : { "member_id" : "C654" }, "message" : "Hello", "sentAt" : "04/12/2017 22:00" } ] } }
{"member" : { "name" : "Abel", "phone" : "1234567890", "member_id" : "C321", "img" : "/assets/img/club1.img", "location" : { "latitude" : 143, "longitude" : 980, "city" : "Fairfield", "state" : "Iowa" }, "clubs" : [ { "name" : "Group5", "location" : { "latitude" : 41.00688, "longitude" : -91.967137, "city" : "Fairfield", "state" : "Iowa" }, "img" : "/assets/img/club1.img", "events" : [ { "name" : "Bike for a good cause", "start_location" : { "latitude" : 123, "longitude" : 456 }, "end_location" : { "latitude" : 123, "longitude" : 456 }, "date" : "04/25/2017", "owner" : { "member_id" : "C123", "member_name" : "Abel" }, "status" : "scheduled", "flag" : { "isSet" : false } }, { "name" : "Palooza trail", "start_location" : { "latitude" : 987, "longitude" : 475 }, "end_location" : { "latitude" : 654, "longitude" : 987 }, "date" : "04/27/2017", "owner" : { "member_id" : "C125", "member_name" : "Netsa" }, "status" : "scheduled", "flag" : { "isSet" : true } } ], "announcements" : [ { "title" : "Reminder", "date" : "04/25/2017", "message" : "Reminder announcement" } ] } ], "messages" : [ { "convo_id" : "m098", "recepient" : { "member_id" : " C125" }, "message" : "Greeting friendly reminder for our ride", "sentAt" : "04/20/2017 22:00" } ] }}
{ "member" : { "name" : "Netsa", "phone" : "0987654321", "member_id" : "C125", "img" : "/assets/img/club1.img", "location" : { "latitude" : 143, "longitude" : 980, "city" : "Bellevue", "state" : "Wasington" }, "clubs" : [ { "name" : "Awesome Group", "location" : { "latitude" : 41.00688, "longitude" : -91.967137, "city" : "Fairfield", "state" : "Iowa" }, "img" : "/assets/img/club1.img", "events" : [ { "name" : "Bike till you sweat", "start_location" : { "latitude" : 123, "longitude" : 456 }, "end_location" : { "latitude" : 123, "longitude" : 456 }, "date" : "04/27/2017", "owner" : { "member_id" : "C125", "member_name" : "Netsa" }, "status" : "scheduled", "flag" : { "isSet" : false } }, { "name" : "Letâ€™s do it!", "start_location" : { "latitude" : 987, "longitude" : 475 }, "end_location" : { "latitude" : 654, "longitude" : 987 }, "date" : "04/28/2017", "owner" : { "member_id" : "C125", "member_name" : "Netsa" }, "status" : "scheduled", "flag" : { "isSet" : true } } ], "announcements" : [ { "title" : "Reminder", "date" : "05/04/2017", "message" : "Reminder announcement" } ] } ], "messages" : [] }}
{ "member" : { "name" : "Mussie", "phone" : "9876352673", "member_id" : "C425", "img" : "/assets/img/club1.img", "location" : { "latitude" : 143, "longitude" : 980, "city" : "Seattle", "state" : "Wasington" }, "clubs" : [ { "name" : "Awesome Group", "location" : { "latitude" : 41.00688, "longitude" : -91.967137, "city" : "Fairfield", "state" : "Iowa" }, "img" : "/assets/img/club1.img", "events" : [ { "name" : "Bike till you sweat", "start_location" : { "latitude" : 123, "longitude" : 456 }, "end_location" : { "latitude" : 123, "longitude" : 456 }, "date" : "04/27/2017", "owner" : { "member_id" : "C125", "member_name" : "Netsa" }, "status" : "scheduled", "flag" : { "isSet" : false } } ], "announcements" : []}], "messages" : [] }}
{"member" : { "name" : "Alien", "phone" : "7834675837", "member_id" : "C206", "img" : "/assets/img/club1.img", "location" : { "latitude" : 143, "longitude" : 980, "city" : "Seattle", "state" : "Wasington" }, "clubs" : [], "messages" : [] } }



